[
  {
    "id": 1,
    "lat": "46.94727",
    "lng": "20.26955",
    "name": "Homok vasútállomás"
  },
  {
    "id": 2,
    "lat": "46.949099",
    "lng": "20.262908",
    "name": "Bányai K. úti elágazás központ irányába"
  },
  {
    "id": 3,
    "lat": "46.95074",
    "lng": "20.25877",
    "name": "Homoki Általános Iskola központ irányába"
  },
  {
    "id": 4,
    "lat": "46.95541",
    "lng": "20.24681",
    "name": "Egészségház központ irányába"
  },
  {
    "id": 5,
    "lat": "46.95995",
    "lng": "20.24106",
    "name": "Homoki elágazás központ irányába"
  },
  {
    "id": 6,
    "lat": "46.96644",
    "lng": "20.24867",
    "name": "Komondi féle megálló központ irányába"
  },
  {
  "id": 7,
  "lat": "46.97311",
  "lng": "20.25489",
  "name": "Ószőlői Gyógyszertár központ irányába"
  },
  {
    "id": 8,
    "lat": "46.980325",
    "lng": "20.254424",
    "name": "Balog sarok - Virág út"
  },
  {
    "id": 9,
    "lat": "46.98230",
    "lng": "20.24626",
    "name": "Virág út - Árvai J. út"
  },
  {
    "id": 10,
    "lat": "46.98389",
    "lng": "20.24056",
    "name": "Virág út - Baross körút"
  },
  {
    "id": 11,
    "lat": "46.98700",
    "lng": "20.24407",
    "name": "Kalap út"
  },
  {
    "id": 12,
    "lat": "46.98953",
    "lng": "20.24488",
    "name": "Idősek Gondozóháza"
  },
  {
    "id": 13,
    "lat": "46.99230",
    "lng": "20.24819",
    "name": "Polgármesteri Hivatal"
  },
  {
    "id": 14,
    "lat": "46.98629",
    "lng": "20.25120",
    "name": "3A Takarék Szövetkezet"
  },
  {
    "id": 15,
    "lat": "46.98051",
    "lng": "20.25448",
    "name": "Balog sarok"
  },
  {
    "id": 16,
    "lat": "46.97488",
    "lng": "20.26529",
    "name": "Öcsödi út - Tavaszmező út"
  },
  {
    "id": 17,
    "lat": "46.97295",
    "lng": "20.27305",
    "name": "Öcsödi út - Radnóti út"
  },
  {
    "id": 18,
    "lat": "46.97592",
    "lng": "20.27521",
    "name": "Tiszaföldvár vasútállomás"
  },
  {
    "id": 19,
    "lat": "46.94727",
    "lng": "20.26955",
    "name": "Homok vasútállomás"
  },
  {
    "id": 19,
    "lat": "46.97740",
    "lng": "20.26724",
    "name": "Téglagyár"
  },
  {
    "id": 20,
    "lat": "46.97988",
    "lng": "20.25634",
    "name": "Penny Market"
  },
  {
    "id": 21,
    "lat": "46.97319",
    "lng": "20.25700",
    "name": "Ószőlői Gyógyszertár Homok irányába"
  },
  {
    "id": 22,
    "lat": "46.96643",
    "lng": "20.24860",
    "name": "Komondi féle megálló Homok irányába"
  },
  {
    "id": 23,
    "lat": "46.95888",
    "lng": "20.24074",
    "name": "Homoki elágazás Homok irányába"
  },
  {
    "id": 24,
    "lat": "46.95528",
    "lng": "20.24690",
    "name": "Egészségház Homok irányába"
  },
  {
    "id": 25,
    "lat": "46.95046",
    "lng": "20.25744",
    "name": "Homoki Általános Iskola Homok irányába"
  },
  {
    "id": 26,
    "lat": "46.94874",
    "lng": "20.26391",
    "name": "Bányai K. úti elágazás Homok irányába"
  }
]
